[
  {
    "name": "Waggon & Horses",
    "layer": "Refreshments & Facilities",
    "lng": -1.500825,
    "lat": 53.342871
  },
  {
    "name": "Dore & Totley",
    "layer": "Refreshments & Facilities",
    "lng": -1.515482,
    "lat": 53.327602
  },
  {
    "name": "Sheffield Station",
    "layer": "Refreshments & Facilities",
    "lng": -1.462937,
    "lat": 53.378268
  },
  {
    "name": "Tesco Cafe",
    "layer": "Refreshments & Facilities",
    "lng": -1.493258,
    "lat": 53.347023
  },
  {
    "name": "The Climbing Works - Cafe & Climbing",
    "layer": "Refreshments & Facilities",
    "lng": -1.484826,
    "lat": 53.35164
  },
  {
    "name": "Hardy Pick",
    "layer": "Refreshments & Facilities",
    "lng": -1.480142,
    "lat": 53.356865
  },
  {
    "name": "Sheaf View",
    "layer": "Refreshments & Facilities",
    "lng": -1.470953,
    "lat": 53.362125
  },
  {
    "name": "The Royal Standard",
    "layer": "Refreshments & Facilities",
    "lng": -1.465076,
    "lat": 53.374124
  },
  {
    "name": "Sheffield Tap",
    "layer": "Refreshments & Facilities",
    "lng": -1.462718,
    "lat": 53.378813
  },
  {
    "name": "Granville Square Wheel",
    "layer": "Sheaf Wheels",
    "lng": -1.463166,
    "lat": 53.374178
  },
  {
    "name": "Duchess Road Wheel",
    "layer": "Sheaf Wheels",
    "lng": -1.465292,
    "lat": 53.372201
  },
  {
    "name": "Queens Road Wheel",
    "layer": "Sheaf Wheels",
    "lng": -1.467095,
    "lat": 53.367344
  },
  {
    "name": "Cutler's Walk Wheel",
    "layer": "Sheaf Wheels",
    "lng": -1.47134,
    "lat": 53.362455
  },
  {
    "name": "Heeley Bridge Wheel",
    "layer": "Sheaf Wheels",
    "lng": -1.473014,
    "lat": 53.362256
  },
  {
    "name": "Saxon Road Wheel",
    "layer": "Sheaf Wheels",
    "lng": -1.474736,
    "lat": 53.360456
  },
  {
    "name": "Heeley Baths Wheel",
    "layer": "Sheaf Wheels",
    "lng": -1.479393,
    "lat": 53.358534
  },
  {
    "name": "Norton Hammer Wheel",
    "layer": "Sheaf Wheels",
    "lng": -1.484067,
    "lat": 53.351646
  },
  {
    "name": "Millhouses Park Wheel",
    "layer": "Sheaf Wheels",
    "lng": -1.500807,
    "lat": 53.341403
  }
]
